STOP_ID,DIRECTION_ID,STOP_NAME,STATION_NAME,STATION_DESCRIPTIVE_NAME,MAP_ID,ADA,RED,BLUE,G,BRN,P,Pexp,Y,Pnk,O,Location,Latitude,Longitude,Number,Street,City,State,County,Zip
30162,W,18th (54th/Cermak-bound),18th,18th (Pink Line),40830,1,,,,,,,,1,,"(41.857908, -87.669147)",41.857983,-87.66925,1710,W 18th St,Chicago,IL,Cook County,60608
30161,E,18th (Loop-bound),18th,18th (Pink Line),40830,1,,,,,,,,1,,"(41.857908, -87.669147)",41.857983,-87.66925,1710,W 18th St,Chicago,IL,Cook County,60608
30022,N,35th/Archer (Loop-bound),35th/Archer,35th/Archer (Orange Line),40120,1,,,,,,,,,1,"(41.829353, -87.680622)",41.829416,-87.680513,3501,S Leavitt St,Chicago,IL,Cook County,60609
30023,S,35th/Archer (Midway-bound),35th/Archer,35th/Archer (Orange Line),40120,1,,,,,,,,,1,"(41.829353, -87.680622)",41.829416,-87.680513,3501,S Leavitt St,Chicago,IL,Cook County,60609
30214,S,35-Bronzeville-IIT (63rd-bound),35th-Bronzeville-IIT,35th-Bronzeville-IIT (Green Line),41120,1,,,1,,,,,,,"(41.831677, -87.625826)",41.831942,-87.626129,3411,S State St,Chicago,IL,Cook County,60616
30213,N,35-Bronzeville-IIT (Harlem-bound),35th-Bronzeville-IIT,35th-Bronzeville-IIT (Green Line),41120,1,,,1,,,,,,,"(41.831677, -87.625826)",41.831942,-87.626129,3411,S State St,Chicago,IL,Cook County,60616
30246,S,43rd (63rd-bound),43rd,43rd (Green Line),41270,1,,,1,,,,,,,"(41.816462, -87.619021)",41.816387,-87.619222,313,E 43rd St,Chicago,IL,Cook County,60653
30245,N,43rd (Harlem-bound),43rd,43rd (Green Line),41270,1,,,1,,,,,,,"(41.816462, -87.619021)",41.816387,-87.619222,313,E 43rd St,Chicago,IL,Cook County,60653
30025,S,51st (63rd-bound),51st,51st (Green Line),40130,1,,,1,,,,,,,"(41.80209, -87.618487)",41.801927,-87.618506,319,E 51st St,Chicago,IL,Cook County,60615
30024,N,51st (Harlem-bound),51st,51st (Green Line),40130,1,,,1,,,,,,,"(41.80209, -87.618487)",41.801927,-87.618506,319,E 51st St,Chicago,IL,Cook County,60615
30113,E,54th/Cermak (Loop-bound),54th/Cermak,54th/Cermak (Pink Line),40580,1,,,,,,,,1,,"(41.85177331, -87.75669201)",41.851581,-87.756139,5240,W Cermak Rd,Cicero,IL,Cook County,60804
30114,W,54th/Cermak (Terminal arrival),54th/Cermak,54th/Cermak (Pink Line),40580,1,,,,,,,,1,,"(41.85177331, -87.75669201)",41.851581,-87.756139,5240,W Cermak Rd,Cicero,IL,Cook County,60804
30192,S,69th (95th-bound),69th,69th (Red Line),40990,1,1,,,,,,,,,"(41.768367, -87.625724)",41.768515,-87.625595,,I 94,Chicago,IL,Cook County,60621
30191,N,69th (Howard-bound),69th,69th (Red Line),40990,1,1,,,,,,,,,"(41.768367, -87.625724)",41.768515,-87.625595,,I 94,Chicago,IL,Cook County,60621
30047,S,79th (95th-bound),79th,79th (Red Line),40240,1,1,,,,,,,,,"(41.750419, -87.625112)",41.750524,-87.625241,,I 94,Chicago,IL,Cook County,60620
30046,N,79th (Howard-bound),79th,79th (Red Line),40240,1,1,,,,,,,,,"(41.750419, -87.625112)",41.750524,-87.625241,,I 94,Chicago,IL,Cook County,60620
30089,S,95th/Dan Ryan (95th-bound),95th/Dan Ryan,95th/Dan Ryan (Red Line),40450,1,1,,,,,,,,,"(41.722377, -87.624342)",41.722378,-87.624345,,I 94,Chicago,IL,Cook County,60620
30088,N,95th/Dan Ryan (Howard-bound),95th/Ran Ryan,95th/Ran Ryan (Red Line),40450,1,1,,,,,,,,,"(41.722377, -87.624342)",41.722378,-87.624345,,I 94,Chicago,IL,Cook County,60620
30132,S,Adams/Wabash (Inner Loop),Adams/Wabash,"Adams/Wabash (Brown, Green, Orange, Pink & Purple Lines)",40680,,,,1,,,1,,1,1,"(41.879507, -87.626037)",41.879519,-87.626116,201,S Wabash Ave,Chicago,IL,Cook County,60604
30131,N,Adams/Wabash (Outer Loop),Adams/Wabash,"Adams/Wabash (Brown, Green, Orange, Pink & Purple Lines)",40680,,,,1,1,,,,,,"(41.879507, -87.626037)",41.879519,-87.626116,201,S Wabash Ave,Chicago,IL,Cook County,60604
30277,N,Addison (Kimball-bound),Addison,Addison (Brown Line),41440,1,,,,1,,,,,,"(41.947028, -87.674642)",41.947099,-87.67462,1812,W Addison St,Chicago,IL,Cook County,60613
30278,S,Addison (Loop-bound),Addison,Addison (Brown Line),41440,1,,,,1,,,,,,"(41.947028, -87.674642)",41.947099,-87.67462,1812,W Addison St,Chicago,IL,Cook County,60613
30274,S,Addison (95th-bound),Addison,Addison (Red Line),41420,1,1,,,,,,,,,"(41.947428, -87.653626)",41.947495,-87.653631,940,W Addison St,Chicago,IL,Cook County,60613
30273,N,Addison (Howard-bound),Addison,Addison (Red Line),41420,1,1,,,,,,,,,"(41.947428, -87.653626)",41.947495,-87.653631,940,W Addison St,Chicago,IL,Cook County,60613
30230,S,Argyle (95th-bound),Argyle,Argyle (Red Line),41200,,1,,,,,,,,,"(41.973453, -87.65853)",41.973424,-87.658573,1118,W Argyle St,Chicago,IL,Cook County,60640
30229,N,Argyle (Howard-bound),Argyle,Argyle (Red Line),41200,,1,,,,,,,,,"(41.973453, -87.65853)",41.973424,-87.658573,1118,W Argyle St,Chicago,IL,Cook County,60640
30275,N,87th (Howard-bound),87th,87th (Red Line),41430,1,1,,,,,,,,,"(41.735372, -87.624717)",41.735409,-87.624755,15,W 87th St,Chicago,IL,Cook County,60620
30127,N,Armitage (Kimball-Linden-bound),Armitage,Armitage (Brown & Purple Lines),40660,1,,,,1,,1,,,,"(41.918217, -87.652644)",41.918285,-87.652516,940,W Armitage Ave,Chicago,IL,Cook County,60614
30128,S,Armitage (Loop-bound),Armitage,Armitage (Brown & Purple Lines),40660,1,,,,1,,1,,,,"(41.918217, -87.652644)",41.918285,-87.652516,940,W Armitage Ave,Chicago,IL,Cook County,60614
30205,N,Ashland (Loop-bound),Ashland,Ashland (Orange Line),41060,1,,,,,,,,,1,"(41.839234, -87.665317)",41.83939,-87.665211,3011,S Ashland Ave,Chicago,IL,Cook County,60608
30206,S,Ashland (Midway-bound),Ashland,Ashland (Orange Line),41060,1,,,,,,,,,1,"(41.839234, -87.665317)",41.83939,-87.665211,3011,S Ashland Ave,Chicago,IL,Cook County,60608
30056,E,Ashland/63rd (Harlem-bound),Ashland/63rd,Ashland/63rd (Green Line),40290,1,,,1,,,,,,,"(41.77886, -87.663766)",41.778946,-87.663863,6315,S Ashland Ave,Chicago,IL,Cook County,60636
30057,W,Ashland/63rd (Terminal arrival),Ashland/63rd,Ashland/63rd (Green Line),40290,1,,,1,,,,,,,"(41.77886, -87.663766)",41.778946,-87.663863,6315,S Ashland Ave,Chicago,IL,Cook County,60636
30002,W,Austin (Forest Pk-bound),Austin,Austin (Blue Line),40010,,,1,,,,,,,,"(41.870851, -87.776812)",41.870499,-87.777002,1001,S Lyman Ave,Oak Park,IL,Cook County,60304
30001,E,Austin (O'Hare-bound),Austin,Austin (Blue Line),40010,,,1,,,,,,,,"(41.870851, -87.776812)",41.870499,-87.777002,1001,S Lyman Ave,Oak Park,IL,Cook County,60304
30243,E,Austin (63rd-bound),Austin,Austin (Green Line),41260,,,,1,,,,,,,"(41.887293, -87.774135)",41.887306,-87.774261,351,N Austin Blvd,Chicago,IL,Cook County,60644
30244,W,Austin (Harlem-bound),Austin,Austin (Green Line),41260,,,,1,,,,,,,"(41.887293, -87.774135)",41.887306,-87.774261,351,N Austin Blvd,Chicago,IL,Cook County,60644
30013,S,Belmont (O'Hare Branch) (Forest Pk-bound),Belmont,Belmont (Blue Line),40060,,,1,,,,,,,,"(41.938132, -87.712359)",41.938138,-87.712201,3121,N Kimball Ave,Chicago,IL,Cook County,60618
30012,N,Belmont (O'Hare Branch) (O'Hare-bound),Belmont,Belmont (Blue Line),40060,,,1,,,,,,,,"(41.938132, -87.712359)",41.938138,-87.712201,3121,N Kimball Ave,Chicago,IL,Cook County,60618
30256,S,Belmont (95th-bound),Belmont,"Belmont (Red, Brown & Purple Lines)",41320,1,1,,,,,,,,,"(41.939751, -87.65338)",41.939743,-87.653605,953,W Belmont Ave,Chicago,IL,Cook County,60657
30255,N,Belmont (Howard-bound),Belmont,"Belmont (Red, Brown & Purple Lines)",41320,1,1,,,,,,,,,"(41.939751, -87.65338)",41.939743,-87.653605,953,W Belmont Ave,Chicago,IL,Cook County,60657
30257,N,Belmont (Kimball-Linden-bound),Belmont,"Belmont (Red, Brown & Purple Lines)",41320,1,,,,1,,1,,,,"(41.939751, -87.65338)",41.939743,-87.653605,953,W Belmont Ave,Chicago,IL,Cook County,60657
30258,S,Belmont (Loop-bound),Belmont,"Belmont (Red, Brown & Purple Lines)",41320,1,,,,1,,1,,,,"(41.939751, -87.65338)",41.939743,-87.653605,953,W Belmont Ave,Chicago,IL,Cook County,60657
30067,S,Berwyn (95th-bound),Berwyn,Berwyn (Red Line),40340,,1,,,,,,,,,"(41.977984, -87.658668)",41.977819,-87.65869,1121,W Berwyn Ave,Chicago,IL,Cook County,60640
30066,N,Berwyn (Howard-bound),Berwyn,Berwyn (Red Line),40340,,1,,,,,,,,,"(41.977984, -87.658668)",41.977819,-87.65869,1121,W Berwyn Ave,Chicago,IL,Cook County,60640
30268,S,Bryn Mawr (95th-bound),Bryn Mawr,Bryn Mawr (Red Line),41380,,1,,,,,,,,,"(41.983504, -87.65884)",41.98349,-87.658846,1119,W Bryn Mawr Ave,Chicago,IL,Cook County,60640
30267,N,Bryn Mawr (Howard-bound),Bryn Mawr,Bryn Mawr (Red Line),41380,,1,,,,,,,,,"(41.983504, -87.65884)",41.98349,-87.658846,1119,W Bryn Mawr Ave,Chicago,IL,Cook County,60640
30087,W,California (54th/Cermak-bound),California,California (Pink Line),40440,1,,,,,,,,1,,"(41.854109, -87.694774)",41.854064,-87.694536,1946,S Fairfield Ave,Chicago,IL,Cook County,60608
30086,E,California (Loop-bound),California,California (Pink Line),40440,1,,,,,,,,1,,"(41.854109, -87.694774)",41.854064,-87.694536,1946,S Fairfield Ave,Chicago,IL,Cook County,60608
30265,E,California (63rd-bound),California,California (Green Line),41360,1,,,1,,,,,,,"(41.88422, -87.696234)",41.884084,-87.696151,2759,W Lake St,Chicago,IL,Cook County,60612
30266,W,California (Harlem-bound),California,California (Green Line),41360,1,,,1,,,,,,,"(41.88422, -87.696234)",41.884084,-87.696151,2759,W Lake St,Chicago,IL,Cook County,60612
30054,E,Central (63rd-bound),Central,Central (Green Line),40280,1,,,1,,,,,,,"(41.887389, -87.76565)",41.887021,-87.765685,5611,W Corcoran Pl,Chicago,IL,Cook County,60644
30055,W,Central (Harlem-bound),Central,Central (Green Line),40280,1,,,1,,,,,,,"(41.887389, -87.76565)",41.887021,-87.765685,5611,W Corcoran Pl,Chicago,IL,Cook County,60644
30152,W,Central Park (54th/Cermak-bound),Central Park,Central Park (Pink Line),40780,1,,,,,,,,1,,"(41.853839, -87.714842)",41.85385,-87.714754,1919,S Central Park Ave,Chicago,IL,Cook County,60623
30151,E,Central Park (Loop-bound),Central Park,Central Park (Pink Line),40780,1,,,,,,,,1,,"(41.853839, -87.714842)",41.85385,-87.714754,1919,S Central Park Ave,Chicago,IL,Cook County,60623
30194,S,Cermak-Chinatown (95th-bound),Cermak-Chinatown,Cermak-Chinatown (Red Line),41000,1,1,,,,,,,,,"(41.853206, -87.630968)",41.853628,-87.631112,138,W Cermak Rd,Chicago,IL,Cook County,60616
30193,N,Cermak-Chinatown (Howard-bound),Cermak-Chinatown,Cermak-Chinatown (Red Line),41000,1,1,,,,,,,,,"(41.853206, -87.630968)",41.853628,-87.631112,138,W Cermak Rd,Chicago,IL,Cook County,60616
30242,S,Central (Howard-Loop-bound),Central,Central (Purple Line),41250,,,,,,1,1,,,,"(42.063987, -87.685617)",42.064058,-87.685704,1022,Central St,Evanston,IL,Cook County,60201
30241,N,Central (Linden-bound),Central,Central (Purple Line),41250,,,,,,1,1,,,,"(42.063987, -87.685617)",42.064058,-87.685704,1022,Central St,Evanston,IL,Cook County,60201
30083,W,Cicero (54th/Cermak-bound),Cicero,Cicero (Pink Line),40420,1,,,,,,,,1,,"(41.85182, -87.745336)",41.852165,-87.74521,2121,48th Ct,Cicero,IL,Cook County,60804
30082,E,Cicero (Loop-bound),Cicero,Cicero (Pink Line),40420,1,,,,,,,,1,,"(41.85182, -87.745336)",41.852165,-87.74521,2121,48th Ct,Cicero,IL,Cook County,60804
30188,W,Cicero (Forest Pk-bound),Cicero,Cicero (Blue Line),40970,,,1,,,,,,,,"(41.871574, -87.745154)",41.871594,-87.745337,4824,S Cicero Ave,Chicago,IL,Cook County,60644
30187,E,Cicero (O'Hare-bound),Cicero,Cicero (Blue Line),40970,,,1,,,,,,,,"(41.871574, -87.745154)",41.871594,-87.745337,4824,S Cicero Ave,Chicago,IL,Cook County,60644
30094,E,Cicero (63rd-bound),Cicero,Cicero (Green Line),40480,1,,,1,,,,,,,"(41.886519, -87.744698)",41.886861,-87.744688,4740,W Lake St,Chicago,IL,Cook County,60644
30009,W,Cicero (Harlem-bound),Cicero,Cicero (Green Line),40480,1,,,1,,,,,,,"(41.886519, -87.744698)",41.886861,-87.744688,4740,W Lake St,Chicago,IL,Cook County,60644
30074,E,Clark/Lake (Inner Loop),Clark/Lake,"Clark/Lake (Blue, Brown, Green, Orange, Purple & Pink Lines)",40380,1,,,1,,,1,,1,1,"(41.885737, -87.630886)",41.885552,-87.63045,191,N Clark St,Chicago,IL,Cook County,60601
30075,W,Clark/Lake (Outer Loop),Clark/Lake,"Clark/Lake (Blue, Brown, Green, Orange, Purple & Pink Lines)",40380,1,,,1,1,,,,,,"(41.885737, -87.630886)",41.885552,-87.63045,191,N Clark St,Chicago,IL,Cook County,60601
30374,S,Clark/Lake (Forest Pk-bound),Clark/Lake,"Clark/Lake (Blue, Brown, Green, Orange, Purple & Pink Lines)",40380,1,,1,,,,,,,,"(41.885737, -87.630886)",41.885552,-87.63045,191,N Clark St,Chicago,IL,Cook County,60601
30375,N,Clark/Lake (O'Hare-bound),Clark/Lake,"Clark/Lake (Blue, Brown, Green, Orange, Purple & Pink Lines)",40380,1,,1,,,,,,,,"(41.885737, -87.630886)",41.885552,-87.63045,191,N Clark St,Chicago,IL,Cook County,60601
30085,W,Clinton (Forest Pk-bound),Clinton,Clinton (Blue Line),40430,,,1,,,,,,,,"(41.875539, -87.640984)",41.876003,-87.641254,430,S Clinton St,Chicago,IL,Cook County,60607
30084,E,Clinton (O'Hare-bound),Clinton,Clinton (Blue Line),40430,,,1,,,,,,,,"(41.875539, -87.640984)",41.876003,-87.641254,430,S Clinton St,Chicago,IL,Cook County,60607
30222,W,Clinton (Harlem-54th/Cermak-bound),Clinton,Clinton (Green & Pink Lines),41160,1,,,1,,,,,1,,"(41.885678, -87.641782)",41.885665,-87.641799,540,W Lake St,Chicago,IL,Cook County,60661
30221,E,Clinton (Loop-63rd-bound),Clinton,Clinton (Green & Pink Lines),41160,1,,,1,,,,,1,,"(41.885678, -87.641782)",41.885665,-87.641799,540,W Lake St,Chicago,IL,Cook County,60661
30291,E,Conservatory (63rd-bound),Conservatory,Conservatory (Green Line),41670,1,,,1,,,,,,,"(41.884904, -87.716523)",41.885066,-87.715282,3544,W Lake St,Chicago,IL,Cook County,60624
30292,W,Conservatory (Harlem-bound),Conservatory,Conservatory (Green Line),41670,1,,,1,,,,,,,"(41.884904, -87.716523)",41.885066,-87.715282,3544,W Lake St,Chicago,IL,Cook County,60624
30139,E,Cottage Grove (Terminal arrival),Cottage Grove,Cottage Grove (Green Line),40720,1,,,1,,,,,,,"(41.780309, -87.605857)",41.780504,-87.605884,800,E 63rd St,Chicago,IL,Cook County,60637
30045,S,Cumberland (Forest Pk-bound),Cumberland,Cumberland (Blue Line),40230,1,,1,,,,,,,,"(41.984246, -87.838028)",41.984352,-87.838046,,I 90,Chicago,IL,Cook County,60631
30044,N,Cumberland (O'Hare-bound),Cumberland,Cumberland (Blue Line),40230,1,,1,,,,,,,,"(41.984246, -87.838028)",41.984352,-87.838046,,I 90,Chicago,IL,Cook County,60631
30041,W,Damen (54th/Cermak-bound),Damen,Damen (Pink Line),40210,1,,,,,,,,1,,"(41.854517, -87.675975)",41.854625,-87.675743,2007,S Damen Ave,Chicago,IL,Cook County,60608
30040,E,Damen (Loop-bound),Damen,Damen (Pink Line),40210,1,,,,,,,,1,,"(41.854517, -87.675975)",41.854625,-87.675743,2007,S Damen Ave,Chicago,IL,Cook County,60608
30116,S,Damen/Milwaukee (Forest Pk-bound),Damen,Damen (Blue Line),40590,,,1,,,,,,,,"(41.909744, -87.677437)",41.90975,-87.677671,1554,N Damen Ave,Chicago,IL,Cook County,60622
30115,N,Damen/Milwaukee (O'Hare-bound),Damen,Damen (Blue Line),40590,,,1,,,,,,,,"(41.909744, -87.677437)",41.90975,-87.677671,1554,N Damen Ave,Chicago,IL,Cook County,60622
30018,N,Damen (Kimball-bound),Damen,Damen (Brown Line),40090,1,,,,1,,,,,,"(41.966286, -87.678639)",41.966298,-87.678855,4639,N Damen Ave,Chicago,IL,Cook County,60625
30019,S,Damen (Loop-bound),Damen,Damen (Brown Line),40090,1,,,,1,,,,,,"(41.966286, -87.678639)",41.966298,-87.678855,4639,N Damen Ave,Chicago,IL,Cook County,60625
30011,S,Davis (Howard-Loop-bound),Davis,Davis (Purple Line),40050,1,,,,,1,1,,,,"(42.04771, -87.683543)",42.047628,-87.683656,1612,Benson Ave,Evanston,IL,Cook County,60201
30010,N,Davis (Linden-bound),Davis,Davis (Purple Line),40050,1,,,,,1,1,,,,"(42.04771, -87.683543)",42.047628,-87.683656,1612,Benson Ave,Evanston,IL,Cook County,60201
30134,S,Dempster (Howard-Loop-bound),Dempster,Dempster (Purple Line),40690,,,,,,1,1,,,,"(42.041655, -87.681602)",42.041669,-87.681576,1314,Sherman Pl,Evanston,IL,Cook County,60201
30133,N,Dempster (Linden-bound),Dempster,Dempster (Purple Line),40690,,,,,,1,1,,,,"(42.041655, -87.681602)",42.041669,-87.681576,1314,Sherman Pl,Evanston,IL,Cook County,60201
30103,N,Diversey (Kimball-Linden-bound),Diversey,Diversey (Brown & Purple Lines),40530,1,,,,1,,1,,,,"(41.932732, -87.653131)",41.932844,-87.653229,946,W Diversey Pkwy,Chicago,IL,Cook County,60614
30104,S,Diversey (Loop-bound),Diversey,Diversey (Brown & Purple Lines),40530,1,,,,1,,1,,,,"(41.932732, -87.653131)",41.932844,-87.653229,946,W Diversey Pkwy,Chicago,IL,Cook County,60614
30063,S,Division (Forest Pk-bound),Division,Division (Blue Line),40320,,,1,,,,,,,,"(41.903355, -87.666496)",41.903134,-87.666567,1184,N Milwaukee Ave,Chicago,IL,Cook County,60642
30076,E,Forest Park (O'Hare-bound),Forest Park,Forest Park (Blue Line),40390,1,,1,,,,,,,,"(41.874257, -87.817318)",41.874225,-87.816773,711,Des Plaines Ave,Forest Park,IL,Cook County,60130
30077,W,Forest Park (Terminal Arrival),Forest Park,Forest Park (Blue Line),40390,1,,1,,,,,,,,"(41.874257, -87.817318)",41.874225,-87.816773,711,Des Plaines Ave,Forest Park,IL,Cook County,60130
30102,S,Foster (Howard-Loop-bound),Foster,Foster (Purple Line),40520,,,,,,1,1,,,,"(42.05416, -87.68356)",42.054069,-87.683311,833,Foster St,Evanston,IL,Cook County,60201
30101,N,Foster (Linden-bound),Foster,Foster (Purple Line),40520,,,,,,1,1,,,,"(42.05416, -87.68356)",42.054069,-87.683311,833,Foster St,Evanston,IL,Cook County,60201
30167,N,Francisco (Kimball-bound),Francisco,Francisco (Brown Line),40870,1,,,,1,,,,,,"(41.966046, -87.701644)",41.965867,-87.701729,2914,W Eastwood Ave,Chicago,IL,Cook County,60625
30168,S,Francisco (Loop-bound),Francisco,Francisco (Brown Line),40870,1,,,,1,,,,,,"(41.966046, -87.701644)",41.965867,-87.701729,2914,W Eastwood Ave,Chicago,IL,Cook County,60625
30234,S,Fullerton (95th-bound),Fullerton,"Fullerton (Red, Brown & Purple Lines)",41220,1,1,,,,,,,,,"(41.925051, -87.652866)",41.925286,-87.652816,943,W Fullerton Ave,Chicago,IL,Cook County,60614
30233,N,Fullerton (Howard-bound),Fullerton,"Fullerton (Red, Brown & Purple Lines)",41220,1,1,,,,,,,,,"(41.925051, -87.652866)",41.925286,-87.652816,943,W Fullerton Ave,Chicago,IL,Cook County,60614
30235,N,Fullerton (Kimball-Linden-bound),Fullerton,"Fullerton (Red, Brown & Purple Lines)",41220,1,,,,1,,1,,,,"(41.925051, -87.652866)",41.925286,-87.652816,943,W Fullerton Ave,Chicago,IL,Cook County,60614
30236,S,Fullerton (Loop-bound),Fullerton,"Fullerton (Red, Brown & Purple Lines)",41220,1,,,,1,,1,,,,"(41.925051, -87.652866)",41.925286,-87.652816,943,W Fullerton Ave,Chicago,IL,Cook County,60614
30100,S,Garfield (63rd-bound),Garfield,Garfield (Green Line),40510,1,,,1,,,,,,,"(41.795172, -87.618327)",41.795347,-87.618379,320,E Garfield Blvd,Chicago,IL,Cook County,60615
30099,N,Garfield (Harlem-bound),Garfield,Garfield (Green Line),40510,1,,,1,,,,,,,"(41.795172, -87.618327)",41.795347,-87.618379,320,E Garfield Blvd,Chicago,IL,Cook County,60615
30096,S,Grand/Milwaukee (Forest Pk-bound),Grand,Grand (Blue Line),40490,,,1,,,,,,,,"(41.891189, -87.647578)",41.890911,-87.647438,494,N Milwaukee Ave,Chicago,IL,Cook County,60654
30095,N,Grand/Milwaukee (O'Hare-bound),Grand,Grand (Blue Line),40490,,,1,,,,,,,,"(41.891189, -87.647578)",41.890911,-87.647438,494,N Milwaukee Ave,Chicago,IL,Cook County,60654
30065,S,Grand/State (95th-bound),Grand,Grand (Red Line),40330,1,1,,,,,,,,,"(41.891665, -87.628021)",41.891423,-87.628261,1,W Grand Ave,Chicago,IL,Cook County,60654
30064,N,Grand/State (Howard-bound),Grand,Grand (Red Line),40330,1,1,,,,,,,,,"(41.891665, -87.628021)",41.891423,-87.628261,1,W Grand Ave,Chicago,IL,Cook County,60654
30148,S,Granville (95th-bound),Granville,Granville (Red Line),40760,1,1,,,,,,,,,"(41.993664, -87.659202)",41.993709,-87.659164,1119,W Granville Ave,Chicago,IL,Cook County,60660
30147,N,Granville (Howard-bound),Granville,Granville (Red Line),40760,1,1,,,,,,,,,"(41.993664, -87.659202)",41.993709,-87.659164,1119,W Granville Ave,Chicago,IL,Cook County,60660
30215,N,Halsted (Loop-bound),Halsted,Halsted (Orange Line),41130,1,,,,,,,,,1,"(41.84678, -87.648088)",41.846928,-87.648085,2520,S Archer Ave,Chicago,IL,Cook County,60608
30216,S,Halsted (Midway-bound),Halsted,Halsted (Orange Line),41130,1,,,,,,,,,1,"(41.84678, -87.648088)",41.846928,-87.648085,2520,S Archer Ave,Chicago,IL,Cook County,60608
30184,W,Halsted/63rd (Ashland-bound),Halsted,Halsted (Green Line),40940,1,,,1,,,,,,,"(41.778943, -87.644244)",41.779043,-87.644006,6321,S Halsted St,Chicago,IL,Cook County,60621
30183,E,Halsted/63rd (Harlem-bound),Halsted,Halsted (Green Line),40940,1,,,1,,,,,,,"(41.778943, -87.644244)",41.779043,-87.644006,6321,S Halsted St,Chicago,IL,Cook County,60621
30146,S,Harlem (O'Hare Branch) (Forest Pk-bound),Harlem,Harlem (Blue Line - O'Hare Branch),40750,1,,1,,,,,,,,"(41.98227, -87.8089)",41.98237,-87.808057,,I 90,Chicago,IL,Cook County,60656
30145,N,Harlem (O'Hare Branch) (O'Hare-bound),Harlem,Harlem (Blue Line - O'Hare Branch),40750,1,,1,,,,,,,,"(41.98227, -87.8089)",41.98237,-87.808057,,I 90,Chicago,IL,Cook County,60656
30004,W,Harlem (Terminal arrival),Harlem/Lake,Harlem/Lake (Green Line),40020,1,,,1,,,,,,,"(41.886848, -87.803176)",41.886559,-87.803179,1113,South Blvd,Oak Park,IL,Cook County,60302
30003,E,Harlem (63rd-bound),Harlem/Lake,Harlem/Lake (Green Line),40020,1,,,1,,,,,,,"(41.886848, -87.803176)",41.886559,-87.803179,1113,South Blvd,Oak Park,IL,Cook County,60302
30286,S,Harrison (95th-bound),Harrison,Harrison (Red Line),41490,,1,,,,,,,,,"(41.874039, -87.627479)",41.873968,-87.627451,721,S State St,Chicago,IL,Cook County,60605
30285,N,Harrison (Howard-bound),Harrison,Harrison (Red Line),41490,,1,,,,,,,,,"(41.874039, -87.627479)",41.873968,-87.627451,721,S State St,Chicago,IL,Cook County,60605
30062,N,Division (O'Hare-bound),Division,Division (Blue Line),40320,,,1,,,,,,,,"(41.903355, -87.666496)",41.903134,-87.666567,1184,N Milwaukee Ave,Chicago,IL,Cook County,60642
30224,S,Garfield (95th-bound),Garfield,Garfield (Red Line),41170,1,1,,,,,,,,,"(41.79542, -87.631157)",41.795454,-87.631192,220,W Garfield Blvd,Chicago,IL,Cook County,60609
30189,E,Harlem (Forest Pk Branch) (O'Hare-bound),Harlem,Harlem (Blue Line - Forest Park Branch),40980,,,1,,,,,,,,"(41.87349, -87.806961)",41.872944,-87.807329,7301,Harrison St,Forest Park,IL,Cook County,60130
30166,W,H.W. Library (Inner Loop),Harold Washington Library-State/Van Buren,"Harold Washington Library-State/Van Buren (Brown, Orange, Purple & Pink Lines)",40850,1,,,,,,1,,1,1,"(41.876862, -87.628196)",41.876925,-87.628572,26,W Van Buren St,Chicago,IL,Cook County,60604
30176,S,Howard (Terminal arrival),Howard,"Howard (Red, Purple & Yellow Lines)",40900,1,,,,,1,1,1,,,"(42.019063, -87.672892)",42.019051,-87.673017,1649,W Howard St,Chicago,IL,Cook County,60626
30173,N,Howard (Terminal arrival),Howard,"Howard (Red, Purple & Yellow Lines)",40900,1,1,,,,,,,,,"(42.019063, -87.672892)",42.019051,-87.673017,1649,W Howard St,Chicago,IL,Cook County,60626
30174,S,Howard (95th-Bound),Howard,"Howard (Red, Purple & Yellow Lines)",40900,1,1,,,,,,,,,"(42.019063, -87.672892)",42.019051,-87.673017,1649,W Howard St,Chicago,IL,Cook County,60626
30158,W,Illinois Medical District (Forest Pk-bound),Illinois Medical District,Illinois Medical District (Blue Line),40810,1,,1,,,,,,,,"(41.875706, -87.673932)",41.87571,-87.673781,413,S Wolcott Ave,Chicago,IL,Cook County,60612
30157,E,Illinois Medical District (O'Hare-bound),Illinois Medical District,Illinois Medical District (Blue Line),40810,1,,1,,,,,,,,"(41.875706, -87.673932)",41.87571,-87.673781,413,S Wolcott Ave,Chicago,IL,Cook County,60612
30059,S,Indiana (63rd-bound),Indiana,Indiana (Green Line),40300,1,,,1,,,,,,,"(41.821732, -87.621371)",41.82182,-87.62154,4003,S Indiana Ave,Chicago,IL,Cook County,60653
30058,N,Indiana (Harlem-bound),Indiana,Indiana (Green Line),40300,1,,,1,,,,,,,"(41.821732, -87.621371)",41.82182,-87.62154,4003,S Indiana Ave,Chicago,IL,Cook County,60653
30108,S,Irving Park (O'Hare Branch) (Forest Pk-bound),Irving Park,Irving Park (Blue Line),40550,,,1,,,,,,,,"(41.952925, -87.729229)",41.952841,-87.729002,4131,W Irving Park Rd,Chicago,IL,Cook County,60641
30107,N,Irving Park (O'Hare Branch) (O'Hare-bound),Irving Park,Irving Park (Blue Line),40550,,,1,,,,,,,,"(41.952925, -87.729229)",41.952841,-87.729002,4131,W Irving Park Rd,Chicago,IL,Cook County,60641
30281,N,Irving Park (Kimball-bound),Irving Park,Irving Park (Brown Line),41460,1,,,,1,,,,,,"(41.954521, -87.674868)",41.954437,-87.675052,1820,W Irving Park Rd,Chicago,IL,Cook County,60613
30282,S,Irving Park (Loop-bound),Irving Park,Irving Park (Brown Line),41460,1,,,,1,,,,,,"(41.954521, -87.674868)",41.954437,-87.675052,1820,W Irving Park Rd,Chicago,IL,Cook County,60613
30015,S,Jackson/Dearborn (Forest Pk-bound),Jackson,Jackson (Blue Line),40070,1,,1,,,,,,,,"(41.878183, -87.629296)",41.878026,-87.629099,33,W Jackson Blvd,Chicago,IL,Cook County,60604
30014,N,Jackson/Dearborn (O'Hare-bound),Jackson,Jackson (Blue Line),40070,1,,1,,,,,,,,"(41.878183, -87.629296)",41.878026,-87.629099,33,W Jackson Blvd,Chicago,IL,Cook County,60604
30110,S,Jackson/State (95th-bound),Jackson,Jackson (Red Line),40560,1,1,,,,,,,,,"(41.878153, -87.627596)",41.878036,-87.628044,300,S State St,Chicago,IL,Cook County,60604
30109,N,Jackson/State (Howard-bound),Jackson,Jackson (Red Line),40560,1,1,,,,,,,,,"(41.878153, -87.627596)",41.878036,-87.628044,300,S State St,Chicago,IL,Cook County,60604
30228,S,Jarvis (95th-bound),Jarvis,Jarvis (Red Line),41190,,1,,,,,,,,,"(42.015876, -87.669092)",42.015779,-87.669024,1523,W Jarvis Ave,Chicago,IL,Cook County,60626
30227,N,Jarvis (Howard-bound),Jarvis,Jarvis (Red Line),41190,,1,,,,,,,,,"(42.015876, -87.669092)",42.015779,-87.669024,1523,W Jarvis Ave,Chicago,IL,Cook County,60626
30248,S,Jefferson Park (Forest Pk-bound),Jefferson Park,Jefferson Park (Blue Line),41280,1,,1,,,,,,,,"(41.970634, -87.760892)",41.970627,-87.760892,,I 90,Chicago,IL,Cook County,60630
30247,N,Jefferson Park (O'Hare-bound),Jefferson Park,Jefferson Park (Blue Line),41280,1,,1,,,,,,,,"(41.970634, -87.760892)",41.970627,-87.760892,,I 90,Chicago,IL,Cook County,60630
30219,N,Kedzie (Loop-bound),Kedzie,Kedzie (Orange Line),41150,1,,,,,,,,,1,"(41.804236, -87.704406)",41.804541,-87.704293,4850,S Kedzie Ave,Chicago,IL,Cook County,60632
30220,S,Kedzie (Midway-bound),Kedzie,Kedzie (Orange Line),41150,1,,,,,,,,,1,"(41.804236, -87.704406)",41.804541,-87.704293,4850,S Kedzie Ave,Chicago,IL,Cook County,60632
30202,W,Kedzie (54th/Cermak-bound),Kedzie,Kedzie (Pink Line),41040,1,,,,,,,,1,,"(41.853964, -87.705408)",41.853881,-87.705566,1952,S Kedzie Ave,Chicago,IL,Cook County,60623
30201,E,Kedzie (Loop-bound),Kedzie,Kedzie (Pink Line),41040,1,,,,,,,,1,,"(41.853964, -87.705408)",41.853881,-87.705566,1952,S Kedzie Ave,Chicago,IL,Cook County,60623
30225,N,Kedzie (Kimball-bound),Kedzie,Kedzie (Brown Line),41180,1,,,,1,,,,,,"(41.965996, -87.708821)",41.965917,-87.708838,4642,N Kedzie Ave,Chicago,IL,Cook County,60625
30226,S,Kedzie (Loop-bound),Kedzie,Kedzie (Brown Line),41180,1,,,,1,,,,,,"(41.965996, -87.708821)",41.965917,-87.708838,4642,N Kedzie Ave,Chicago,IL,Cook County,60625
30207,E,Kedzie (63rd-bound),Kedzie,Kedzie (Green Line),41070,1,,,1,,,,,,,"(41.884321, -87.706155)",41.884427,-87.706273,3200,W Lake St,Chicago,IL,Cook County,60624
30208,W,Kedzie (Harlem-bound),Kedzie,Kedzie (Green Line),41070,1,,,1,,,,,,,"(41.884321, -87.706155)",41.884427,-87.706273,3200,W Lake St,Chicago,IL,Cook County,60624
30049,W,Kedzie-Homan (Forest Pk-bound),Kedzie-Homan,Kedzie-Homan (Blue Line),40250,1,,1,,,,,,,,"(41.874341, -87.70604)",41.874411,-87.706119,530,S Kedzie Ave,Chicago,IL,Cook County,60612
30048,E,Kedzie-Homan (O'Hare-bound),Kedzie-Homan,Kedzie-Homan (Blue Line),40250,1,,1,,,,,,,,"(41.874341, -87.70604)",41.874411,-87.706119,530,S Kedzie Ave,Chicago,IL,Cook County,60612
30250,S,Kimball (Loop-bound),Kimball,Kimball (Brown Line),41290,1,,,,1,,,,,,"(41.967901, -87.713065)",41.967679,-87.712924,4755,N Kimball Ave,Chicago,IL,Cook County,60625
30249,N,Kimball (Terminal arrival),Kimball,Kimball (Brown Line),41290,1,,,,1,,,,,,"(41.967901, -87.713065)",41.967679,-87.712924,4755,N Kimball Ave,Chicago,IL,Cook County,60625
30217,E,King Drive (Cottage Grove-bound),King Drive,King Drive (Green Line),41140,1,,,1,,,,,,,"(41.78013, -87.615546)",41.780101,-87.615379,6301,S Martin Luther King Jr Dr,Chicago,IL,Cook County,60637
30218,W,King Drive (Harlem-bound),King Drive,King Drive (Green Line),41140,1,,,1,,,,,,,"(41.78013, -87.615546)",41.780101,-87.615379,6301,S Martin Luther King Jr Dr,Chicago,IL,Cook County,60637
30118,W,Kostner (54th/Cermak-bound),Kostner,Kostner (Pink Line),40600,1,,,,,,,,1,,"(41.853751, -87.733258)",41.853522,-87.733282,4326,W 21st St,Chicago,IL,Cook County,60623
30117,E,Kostner (Loop-bound),Kostner,Kostner (Pink Line),40600,1,,,,,,,,1,,"(41.853751, -87.733258)",41.853522,-87.733282,4326,W 21st St,Chicago,IL,Cook County,60623
30135,E,Laramie (63rd-bound),Laramie,Laramie (Green Line),40700,1,,,1,,,,,,,"(41.887163, -87.754986)",41.887213,-87.754597,5148,W Lake St,Chicago,IL,Cook County,60644
30136,W,Laramie (Harlem-bound),Laramie,Laramie (Green Line),40700,1,,,1,,,,,,,"(41.887163, -87.754986)",41.887213,-87.754597,5148,W Lake St,Chicago,IL,Cook County,60644
30262,W,LaSalle (Forest Pk-bound),LaSalle,LaSalle (Blue Line),41340,,,1,,,,,,,,"(41.875568, -87.631722)",41.875562,-87.631985,442,S La Salle St,Chicago,IL,Cook County,60605
30261,E,LaSalle (O'Hare-bound),LaSalle,LaSalle (Blue Line),41340,,,1,,,,,,,,"(41.875568, -87.631722)",41.875562,-87.631985,442,S La Salle St,Chicago,IL,Cook County,60605
30031,W,LaSalle/Van Buren (Inner Loop),LaSalle/Van Buren,"LaSalle/Van Buren (Brown, Orange, Purple & Pink Lines)",40160,,,,,,,1,,1,1,"(41.8768, -87.631739)",41.876644,-87.631479,119,W Van Buren St,Chicago,IL,Cook County,60605
30030,E,LaSalle/Van Buren (Outer Loop),LaSalle/Van Buren,"LaSalle/Van Buren (Brown, Orange, Purple & Pink Lines)",40160,,,,,1,,,,,,"(41.8768, -87.631739)",41.876644,-87.631479,119,W Van Buren St,Chicago,IL,Cook County,60605
30150,S,Lawrence (95th-bound),Lawrence,Lawrence (Red Line),40770,,1,,,,,,,,,"(41.969139, -87.658493)",41.969098,-87.658457,1117,W Lawrence Ave,Chicago,IL,Cook County,60640
30149,N,Lawrence (Howard-bound),Lawrence,Lawrence (Red Line),40770,,1,,,,,,,,,"(41.969139, -87.658493)",41.969098,-87.658457,1117,W Lawrence Ave,Chicago,IL,Cook County,60640
30204,S,Linden (Howard-Loop-bound),Linden,Linden (Purple Line),41050,1,,,,,1,1,,,,"(42.073153, -87.69073)",42.072772,-87.690254,314,Laurel Ave,Wilmette,IL,Cook County,60091
30203,N,Linden (Linden-bound),Linden,Linden (Purple Line),41050,1,,,,,1,1,,,,"(42.073153, -87.69073)",42.072772,-87.690254,314,Laurel Ave,Wilmette,IL,Cook County,60091
30198,S,Logan Square (Forest Pk-bound),Logan Square,Logan Square (Blue Line),41020,1,,1,,,,,,,,"(41.929728, -87.708541)",41.929578,-87.708694,2638,N Milwaukee Ave,Chicago,IL,Cook County,60647
30197,N,Logan Square (O'Hare-bound),Logan Square,Logan Square (Blue Line),41020,1,,1,,,,,,,,"(41.929728, -87.708541)",41.929578,-87.708694,2638,N Milwaukee Ave,Chicago,IL,Cook County,60647
30252,S,Loyola (95th-bound),Loyola,Loyola (Red Line),41300,1,1,,,,,,,,,"(42.001073, -87.661061)",42.001246,-87.660966,6530,N Sheridan Rd,Chicago,IL,Cook County,60626
30251,N,Loyola (Howard-bound),Loyola,Loyola (Red Line),41300,1,1,,,,,,,,,"(42.001073, -87.661061)",42.001246,-87.660966,6530,N Sheridan Rd,Chicago,IL,Cook County,60626
30053,S,Main (Howard-Loop-bound),Main,Main (Purple Line),40270,,,,,,1,1,,,,"(42.033456, -87.679538)",42.033345,-87.679477,836,Chicago Ave,Evanston,IL,Cook County,60202
30052,N,Main (Linden-bound),Main,Main (Purple Line),40270,,,,,,1,1,,,,"(42.033456, -87.679538)",42.033345,-87.679477,836,Chicago Ave,Evanston,IL,Cook County,60202
30090,N,Merchandise Mart (Kimball-Linden-bound),Merchandise Mart,Merchandise Mart (Brown & Purple Lines),40460,1,,,,1,,1,,,,"(41.888969, -87.633924)",41.88898,-87.633723,357,N Wells St,Chicago,IL,Cook County,60610
30091,S,Merchandise Mart (Loop-bound),Merchandise Mart,Merchandise Mart (Brown & Purple Lines),40460,1,,,,1,,1,,,,"(41.888969, -87.633924)",41.88898,-87.633723,357,N Wells St,Chicago,IL,Cook County,60610
30182,S,Midway (Arrival),Midway,Midway (Orange Line),40930,1,,,,,,,,,1,"(41.78661, -87.737875)",41.786715,-87.738044,4612,W 59th St,Chicago,IL,Cook County,60629
30181,N,Midway (Loop-bound),Midway,Midway (Orange Line),40930,1,,,,,,,,,1,"(41.78661, -87.737875)",41.786715,-87.738044,4612,W 59th St,Chicago,IL,Cook County,60629
30260,S,Montrose (Forest Pk-bound),Montrose,Montrose (Blue Line),41330,,,1,,,,,,,,"(41.961539, -87.743574)",41.961474,-87.743622,4600,W Montrose Ave,Chicago,IL,Cook County,60630
30259,N,Montrose (O'Hare-bound),Montrose,Montrose (Blue Line),41330,,,1,,,,,,,,"(41.961539, -87.743574)",41.961474,-87.743622,4600,W Montrose Ave,Chicago,IL,Cook County,60630
30287,N,Montrose (Kimball-bound),Montrose,Montrose (Brown Line),41500,1,,,,1,,,,,,"(41.961756, -87.675047)",41.961699,-87.675041,1812,W Montrose Ave,Chicago,IL,Cook County,60613
30288,S,Montrose (Loop-bound),Montrose,Montrose (Brown Line),41500,1,,,,1,,,,,,"(41.961756, -87.675047)",41.961699,-87.675041,1812,W Montrose Ave,Chicago,IL,Cook County,60613
30296,W,Morgan (Harlem-54th/Cermak-bound),Morgan,Morgan (Green & Pink Lines),41510,1,,,1,,,,,1,,"(41.885586, -87.652193)",41.885363,-87.651979,955,W Lake St,Chicago,IL,Cook County,60607
30295,E,Morgan (Loop-63rd-bound),Morgan,Morgan (Green & Pink Lines),41510,1,,,1,,,,,1,,"(41.885586, -87.652193)",41.885363,-87.651979,955,W Lake St,Chicago,IL,Cook County,60607
30021,S,Morse (95th-bound),Morse,Morse (Red Line),40100,,1,,,,,,,,,"(42.008362, -87.665909)",42.008297,-87.665972,1358,W Morse Ave,Chicago,IL,Cook County,60626
30290,S,Lake (95th-bound),Lake,Lake (Red Line),41660,1,1,,,,,,,,,"(41.884809, -87.627813)",41.884797,-87.627452,157,N State St,Chicago,IL,Cook County,60601
30154,S,Monroe (Forest Pk-bound),Monroe,Monroe (Blue Line),40790,,,1,,,,,,,,"(41.880703, -87.629378)",41.880879,-87.629754,70,W Monroe St,Chicago,IL,Cook County,60602
30212,S,Monroe (95th-bound),Monroe,Monroe (Red Line),41090,,1,,,,,,,,,"(41.880745, -87.627696)",41.880958,-87.627405,39,S State St,Chicago,IL,Cook County,60603
30211,N,Monroe (Howard-bound),Monroe,Monroe (Red Line),41090,,1,,,,,,,,,"(41.880745, -87.627696)",41.880958,-87.627405,39,S State St,Chicago,IL,Cook County,60603
30153,N,Monroe (O'Hare-bound),Monroe,Monroe (Blue Line),40790,,,1,,,,,,,,"(41.880703, -87.629378)",41.880879,-87.629754,70,W Monroe St,Chicago,IL,Cook County,60602
30020,N,Morse (Howard-bound),Morse,Morse (Red Line),40100,,1,,,,,,,,,"(42.008362, -87.665909)",42.008297,-87.665972,1358,W Morse Ave,Chicago,IL,Cook County,60626
30126,S,North/Clybourn (95th-bound),North/Clybourn,North/Clybourn (Red Line),40650,,1,,,,,,,,,"(41.910655, -87.649177)",41.910775,-87.649028,1599,N Clybourn Ave,Chicago,IL,Cook County,60642
30125,N,North/Clybourn (Howard-bound),North/Clybourn,North/Clybourn (Red Line),40650,,1,,,,,,,,,"(41.910655, -87.649177)",41.910775,-87.649028,1599,N Clybourn Ave,Chicago,IL,Cook County,60642
30079,S,Noyes (Howard-Loop-bound),Noyes,Noyes (Purple Line),40400,,,,,,1,1,,,,"(42.058282, -87.683337)",42.058323,-87.683195,828,Noyes St,Evanston,IL,Cook County,60201
30078,N,Noyes (Linden-bound),Noyes,Noyes (Purple Line),40400,,,,,,1,1,,,,"(42.058282, -87.683337)",42.058323,-87.683195,828,Noyes St,Evanston,IL,Cook County,60201
30035,W,Oak Park (Forest Pk-bound),Oak Park,Oak Park (Blue Line),40180,,,1,,,,,,,,"(41.872108, -87.791602)",41.871727,-87.79169,901,S Wesley Ave,Oak Park,IL,Cook County,60304
30034,E,Oak Park (O'Hare-bound),Oak Park,Oak Park (Blue Line),40180,,,1,,,,,,,,"(41.872108, -87.791602)",41.871727,-87.79169,901,S Wesley Ave,Oak Park,IL,Cook County,60304
30263,E,Oak Park (63rd-bound),Oak Park,Oak Park (Green Line),41350,,,,1,,,,,,,"(41.886988, -87.793783)",41.887058,-87.793881,728,South Blvd,Oak Park,IL,Cook County,60302
30264,W,Oak Park (Harlem-bound),Oak Park,Oak Park (Green Line),41350,,,,1,,,,,,,"(41.886988, -87.793783)",41.887058,-87.793881,728,South Blvd,Oak Park,IL,Cook County,60302
30253,N,Paulina (Kimball-bound),Paulina,Paulina (Brown Line),41310,1,,,,1,,,,,,"(41.943623, -87.670907)",41.94363,-87.67098,3409,N Paulina St,Chicago,IL,Cook County,60657
30254,S,Paulina (Loop-bound),Paulina,Paulina (Brown Line),41310,1,,,,1,,,,,,"(41.943623, -87.670907)",41.94363,-87.67098,3409,N Paulina St,Chicago,IL,Cook County,60657
30200,W,Polk (54th/Cermak-bound),Polk,Polk (Pink Line),41030,1,,,,,,,,1,,"(41.871551, -87.66953)",41.871392,-87.669566,1713,W Polk St,Chicago,IL,Cook County,60612
30199,E,Polk (Loop-bound),Polk,Polk (Pink Line),41030,1,,,,,,,,1,,"(41.871551, -87.66953)",41.871392,-87.669566,1713,W Polk St,Chicago,IL,Cook County,60612
30185,N,Pulaski (Loop-bound),Pulaski,Pulaski (Orange Line),40960,1,,,,,,,,,1,"(41.799756, -87.724493)",41.799935,-87.724734,4021,W 51st St,Chicago,IL,Cook County,60632
30186,S,Pulaski (Midway-bound),Pulaski,Pulaski (Orange Line),40960,1,,,,,,,,,1,"(41.799756, -87.724493)",41.799935,-87.724734,4021,W 51st St,Chicago,IL,Cook County,60632
30029,W,Pulaski (54th/Cermak-bound),Pulaski,Pulaski (Pink Line),40150,1,,,,,,,,1,,"(41.853732, -87.724311)",41.853535,-87.724532,2025,S Pulaski Rd,Chicago,IL,Cook County,60623
30028,E,Pulaski (Loop-bound),Pulaski,Pulaski (Pink Line),40150,1,,,,,,,,1,,"(41.853732, -87.724311)",41.853535,-87.724532,2025,S Pulaski Rd,Chicago,IL,Cook County,60623
30180,W,Pulaski (Forest Pk-bound),Pulaski,Pulaski (Blue Line),40920,,,1,,,,,,,,"(41.873797, -87.725663)",41.873718,-87.725654,4024,W Harrison St,Chicago,IL,Cook County,60624
30179,E,Pulaski (O'Hare-bound),Pulaski,Pulaski (Blue Line),40920,,,1,,,,,,,,"(41.873797, -87.725663)",41.873718,-87.725654,4024,W Harrison St,Chicago,IL,Cook County,60624
30005,E,Pulaski (63rd-bound),Pulaski,Pulaski (Green Line),40030,1,,,1,,,,,,,"(41.885412, -87.725404)",41.885258,-87.72531,3949,W Lake St,Chicago,IL,Cook County,60624
30006,W,Pulaski (Harlem-bound),Pulaski,Pulaski (Green Line),40030,1,,,1,,,,,,,"(41.885412, -87.725404)",41.885258,-87.72531,3949,W Lake St,Chicago,IL,Cook County,60624
30007,N,Quincy/Wells (Inner Loop),Quincy/Wells,"Quincy/Wells (Brown, Orange, Purple & Pink Lines)",40040,,,,,,,1,,1,1,"(41.878723, -87.63374)",41.878707,-87.633794,220,S Wells St,Chicago,IL,Cook County,60606
30008,S,Quincy/Wells (Outer Loop),Quincy/Wells,"Quincy/Wells (Brown, Orange, Purple & Pink Lines)",40040,,,,,1,,,,,,"(41.878723, -87.63374)",41.878707,-87.633794,220,S Wells St,Chicago,IL,Cook County,60606
30093,W,Racine (Forest Pk-bound),Racine,Racine (Blue Line),40470,,,1,,,,,,,,"(41.87592, -87.659458)",41.875889,-87.659434,430,S Racine Ave,Chicago,IL,Cook County,60607
30092,E,Racine (O'Hare-bound),Racine,Racine (Blue Line),40470,,,1,,,,,,,,"(41.87592, -87.659458)",41.875889,-87.659434,430,S Racine Ave,Chicago,IL,Cook County,60607
30297,N,Oakton-Skokie (Dempster-Skokie-bound),Oakton-Skokie,Oakton-Skokie (Yellow Line),41680,1,,,,,,,1,,,"(42.02624348, -87.74722084)",42.026634,-87.746659,8001,Skokie Blvd,Skokie,IL,Cook County,60076
30119,E,Ridgeland (63rd-bound),Ridgeland,Ridgeland (Green Line),40610,,,,1,,,,,,,"(41.887159, -87.783661)",41.886844,-87.783923,323,South Blvd,Oak Park,IL,Cook County,60302
30120,W,Ridgeland (Harlem-bound),Ridgeland,Ridgeland (Green Line),40610,,,,1,,,,,,,"(41.887159, -87.783661)",41.886844,-87.783923,323,South Blvd,Oak Park,IL,Cook County,60302
30195,N,Rockwell (Kimball-bound),Rockwell,Rockwell (Brown Line),41010,1,,,,1,,,,,,"(41.966115, -87.6941)",41.966086,-87.694004,4644,N Rockwell St,Chicago,IL,Cook County,60625
30196,S,Rockwell (Loop-bound),Rockwell,Rockwell (Brown Line),41010,1,,,,1,,,,,,"(41.966115, -87.6941)",41.966086,-87.694004,4644,N Rockwell St,Chicago,IL,Cook County,60625
30172,S,O'Hare (Forest Pk-bound),O'Hare,O'Hare (Blue Line),40890,1,,1,,,,,,,,"(41.97766526, -87.90422307)",41.97807,-87.903173,825,N Patton Dr,Amf Ohare,IL,Cook County,60666
30080,N,Roosevelt (Loop-Harlem-bound),Roosevelt,"Roosevelt (Red, Orange & Green Lines)",41400,1,,,1,,,,,,1,"(41.867405, -87.62659)",41.867552,-87.626636,22,E Roosevelt Rd,Chicago,IL,Cook County,60605
30160,S,Rosemont (Forest Pk-bound),Rosemont,Rosemont (Blue Line),40820,1,,1,,,,,,,,"(41.983507, -87.859388)",41.983602,-87.859438,,I 190,Des Plaines,IL,Cook County,60018
30159,N,Rosemont (O'Hare-bound),Rosemont,Rosemont (Blue Line),40820,1,,1,,,,,,,,"(41.983507, -87.859388)",41.983602,-87.859438,,I 190,Des Plaines,IL,Cook County,60018
30155,N,Sedgwick (Kimball-Linden-bound),Sedgwick,Sedgwick (Brown & Purple Lines),40800,1,,,,1,,1,,,,"(41.910409, -87.639302)",41.910519,-87.639454,1543,N Hudson Ave,Chicago,IL,Cook County,60610
30156,S,Sedgwick (Loop-bound),Sedgwick,Sedgwick (Brown & Purple Lines),40800,1,,,,1,,1,,,,"(41.910409, -87.639302)",41.910519,-87.639454,1543,N Hudson Ave,Chicago,IL,Cook County,60610
30017,S,Sheridan (95th-bound),Sheridan,Sheridan (Red Line),40080,,1,,,,,,,,,"(41.953775, -87.654929)",41.953757,-87.654883,3934,N Sheridan Rd,Chicago,IL,Cook County,60613
30016,N,Sheridan (Howard-bound),Sheridan,Sheridan (Red Line),40080,,1,,,,,,,,,"(41.953775, -87.654929)",41.953757,-87.654883,3934,N Sheridan Rd,Chicago,IL,Cook County,60613
30293,N,Sheridan (Howard-Linden-bound),Sheridan,Sheridan (Red Line),40080,,,,,,,,,,,"(41.953775, -87.654929)",41.953757,-87.654883,3934,N Sheridan Rd,Chicago,IL,Cook County,60613
30294,S,Sheridan (Loop-bound),Sheridan,Sheridan (Red Line),40080,,,,,,,,,,,"(41.953775, -87.654929)",41.953757,-87.654883,3934,N Sheridan Rd,Chicago,IL,Cook County,60613
30164,S,South Blvd (Howard-Loop-bound),South Boulevard,South Boulevard (Purple Line),40840,,,,,,1,1,,,,"(42.027612, -87.678329)",42.027666,-87.678032,519,Chicago Ave,Evanston,IL,Cook County,60202
30163,N,South Blvd (Linden-bound),South Boulevard,South Boulevard (Purple Line),40840,,,,,,1,1,,,,"(42.027612, -87.678329)",42.027666,-87.678032,519,Chicago Ave,Evanston,IL,Cook County,60202
30070,N,Southport (Kimball-bound),Southport,Southport (Brown Line),40360,1,,,,1,,,,,,"(41.943744, -87.663619)",41.943717,-87.663663,3409,N Southport Ave,Chicago,IL,Cook County,60657
30071,S,Southport (Loop-bound),Southport,Southport (Brown Line),40360,1,,,,1,,,,,,"(41.943744, -87.663619)",41.943717,-87.663663,3409,N Southport Ave,Chicago,IL,Cook County,60657
30037,S,Sox-35th (95th-bound),Sox-35th,Sox-35th (Red Line),40190,1,1,,,,,,,,,"(41.831191, -87.630636)",41.831239,-87.630658,3310,S La Salle St,Chicago,IL,Cook County,60616
30036,N,Sox-35th (Howard-bound),Sox-35th,Sox-35th (Red Line),40190,1,1,,,,,,,,,"(41.831191, -87.630636)",41.831239,-87.630658,3310,S La Salle St,Chicago,IL,Cook County,60616
30050,E,State/Lake (Inner Loop),State/Lake,"State/Lake (Brown, Green, Orange, Pink & Purple Lines)",40260,,,,1,,,1,,1,1,"(41.88574, -87.627835)",41.885588,-87.627588,191,N State St,Chicago,IL,Cook County,60601
30051,W,State/Lake (Outer Loop),State/Lake,"State/Lake (Brown, Green, Orange, Pink & Purple Lines)",40260,,,,1,1,,,,,,"(41.88574, -87.627835)",41.885588,-87.627588,191,N State St,Chicago,IL,Cook County,60601
30170,S,Thorndale (95th-bound),Thorndale,Thorndale (Red Line),40880,,1,,,,,,,,,"(41.990259, -87.659076)",41.990247,-87.659057,1118,W Thorndale Ave,Chicago,IL,Cook County,60660
30169,N,Thorndale (Howard-bound),Thorndale,Thorndale (Red Line),40880,,1,,,,,,,,,"(41.990259, -87.659076)",41.990247,-87.659057,1118,W Thorndale Ave,Chicago,IL,Cook County,60660
30069,W,UIC-Halsted (Forest Pk-bound),UIC-Halsted,UIC-Halsted (Blue Line),40350,1,,1,,,,,,,,"(41.875474, -87.649707)",41.87549,-87.649196,430,S Halsted St,Chicago,IL,Cook County,60607
30068,E,UIC-Halsted (O'Hare-bound),UIC-Halsted,UIC-Halsted (Blue Line),40350,1,,1,,,,,,,,"(41.875474, -87.649707)",41.87549,-87.649196,430,S Halsted St,Chicago,IL,Cook County,60607
30027,S,Dempster-Skokie (Howard-bound),Dempster-Skokie,Dempster-Skokie  (Yellow Line),40140,1,,,,,,,1,,,"(42.038951, -87.751919)",42.038738,-87.75263,5015,Crain St,Skokie,IL,Cook County,60077
30141,N,Washington/Wells (Inner Loop),Washington/Wells,"Washington/Wells (Brown, Orange, Purple & Pink Lines)",40730,1,,,,,,1,,1,1,"(41.882695, -87.63378)",41.882633,-87.633884,100,N Wells St,Chicago,IL,Cook County,60606
30142,S,Washington/Wells (Outer Loop),Washington/Wells,"Washington/Wells (Brown, Orange, Purple & Pink Lines)",40730,1,,,,1,,,,,,"(41.882695, -87.63378)",41.882633,-87.633884,100,N Wells St,Chicago,IL,Cook County,60606
30231,N,Wellington (Kimball-Linden-bound),Wellington,Wellington (Brown & Purple Lines),41210,1,,,,1,,1,,,,"(41.936033, -87.653266)",41.936057,-87.653372,945,W Wellington Ave,Chicago,IL,Cook County,60657
30232,S,Wellington (Loop-bound),Wellington,Wellington (Brown & Purple Lines),41210,1,,,,1,,1,,,,"(41.936033, -87.653266)",41.936057,-87.653372,945,W Wellington Ave,Chicago,IL,Cook County,60657
30060,N,Western (Loop-bound),Western,Western (Orange Line),40310,1,,,,,,,,,1,"(41.804546, -87.684019)",41.804396,-87.684722,4910,S Western Ave,Chicago,IL,Cook County,60609
30061,S,Western (Midway-bound),Western,Western (Orange Line),40310,1,,,,,,,,,1,"(41.804546, -87.684019)",41.804396,-87.684722,4910,S Western Ave,Chicago,IL,Cook County,60609
30144,W,Western (54th/Cermak-bound),Western,Western (Pink Line),40740,1,,,,,,,,1,,"(41.854225, -87.685129)",41.854264,-87.685286,2011,S Western Ave,Chicago,IL,Cook County,60608
30143,E,Western (Loop-bound),Western,Western (Pink Line),40740,1,,,,,,,,1,,"(41.854225, -87.685129)",41.854264,-87.685286,2011,S Western Ave,Chicago,IL,Cook County,60608
30269,N,Roosevelt (Howard-bound),Roosevelt,"Roosevelt (Red, Orange & Green Lines)",41400,1,1,,,,,,,,,"(41.867368, -87.627402)",41.867208,-87.627087,3,E Roosevelt Rd,Chicago,IL,Cook County,60605
30081,S,Roosevelt (Midway-63rd-bound),Roosevelt,"Roosevelt (Red, Orange & Green Lines)",41400,1,,,1,,,,,,1,"(41.867405, -87.62659)",41.867552,-87.626636,22,E Roosevelt Rd,Chicago,IL,Cook County,60605
30073,S,Washington (Forest Pk-bound),Washington,Washington (Blue Line),40370,,,1,,,,,,,,"(41.883164, -87.62944)",41.882879,-87.629682,55,W Washington St,Chicago,IL,Cook County,60602
30072,N,Washington (O'Hare-bound),Washington,Washington (Blue Line),40370,,,1,,,,,,,,"(41.883164, -87.62944)",41.882879,-87.629682,55,W Washington St,Chicago,IL,Cook County,60602
30283,N,Western (Kimball-bound),Western,Western (Brown Line),41480,1,,,,1,,,,,,"(41.966163, -87.688502)",41.966157,-87.688557,4643,N Western Ave,Chicago,IL,Cook County,60625
30284,S,Western (Loop-bound),Western,Western (Brown Line),41480,1,,,,1,,,,,,"(41.966163, -87.688502)",41.966157,-87.688557,4643,N Western Ave,Chicago,IL,Cook County,60625
30140,W,Cottage Grove (Harlem-bound),Cottage Grove,Cottage Grove (Green Line),40720,1,,,1,,,,,,,"(41.780309, -87.605857)",41.780504,-87.605884,800,E 63rd St,Chicago,IL,Cook County,60637
30121,N,Clark/Division (Howard-bound),Clark/Division,Clark/Division (Red Line),40630,1,1,,,,,,,,,"(41.90392, -87.631412)",41.903784,-87.631679,1168,N Clark St,Chicago,IL,Cook County,60610
30276,S,87th (95th-bound),87th,87th (Red Line),41430,1,1,,,,,,,,,"(41.735372, -87.624717)",41.735409,-87.624755,15,W 87th St,Chicago,IL,Cook County,60620
30026,N,Dempster-Skokie (Arrival),Dempster-Skokie,Dempster-Skokie  (Yellow Line),40140,1,,,,,,,1,,,"(42.038951, -87.751919)",42.038738,-87.75263,5015,Crain St,Skokie,IL,Cook County,60077
30298,S,Oakton-Skokie (Howard-bound),Oakton-Skokie,Oakton-Skokie (Yellow Line),41680,1,,,,,,,1,,,"(42.02624348, -87.74722084)",42.026634,-87.746659,8001,Skokie Blvd,Skokie,IL,Cook County,60076
30210,S,47th (63rd-bound),47th,47th (Green Line),41080,1,,,1,,,,,,,"(41.809209, -87.618826)",41.809149,-87.618685,321,E 47th St,Chicago,IL,Cook County,60653
30209,N,47th (Harlem-bound),47th,47th (Green Line),41080,1,,,1,,,,,,,"(41.809209, -87.618826)",41.809149,-87.618685,321,E 47th St,Chicago,IL,Cook County,60653
30238,S,47th (95th-bound),47th,47th (Red Line),41230,1,1,,,,,,,,,"(41.810318, -87.63094)",41.810468,-87.630935,,I 94,Chicago,IL,Cook County,60609
30237,N,47th (Howard-bound),47th,47th (Red Line),41230,1,1,,,,,,,,,"(41.810318, -87.63094)",41.810468,-87.630935,,I 94,Chicago,IL,Cook County,60609
30175,N,"Howard (Linden, Skokie-bound)",Howard,"Howard (Red, Purple & Yellow Lines)",40900,1,,,,,1,1,1,,,"(42.019063, -87.672892)",42.019051,-87.673017,1649,W Howard St,Chicago,IL,Cook County,60626
30111,N,California (O'Hare-bound),California,California (Blue Line),40570,,,1,,,,,,,,"(41.921939, -87.69689)",41.921945,-87.69712,2209,N California Ave,Chicago,IL,Cook County,60647
30112,S,California (Forest Pk-bound),California,California  (Blue Line),40570,,,1,,,,,,,,"(41.921939, -87.69689)",41.921945,-87.69712,2209,N California Ave,Chicago,IL,Cook County,60647
30271,N,Chicago (O'Hare-bound),Chicago,Chicago (Blue Line),41410,,,1,,,,,,,,"(41.896075, -87.655214)",41.895906,-87.65523,760,N Ogden Ave,Chicago,IL,Cook County,60642
30138,S,Chicago (Loop-bound),Chicago,Chicago (Brown & Purple Lines),40710,1,,,,1,,1,,,,"(41.89681, -87.635924)",41.897096,-87.635993,814,N Franklin St,Chicago,IL,Cook County,60610
30137,N,Chicago (Kimball-Linden-bound),Chicago,Chicago (Brown & Purple Lines),40710,1,,,,1,,1,,,,"(41.89681, -87.635924)",41.897096,-87.635993,814,N Franklin St,Chicago,IL,Cook County,60610
30280,S,Chicago (95th-bound),Chicago,Chicago (Red Line),41450,1,1,,,,,,,,,"(41.896671, -87.628176)",41.896865,-87.628453,800,N State St,Chicago,IL,Cook County,60610
30279,N,Chicago (Howard-bound),Chicago,Chicago (Red Line),41450,1,1,,,,,,,,,"(41.896671, -87.628176)",41.896865,-87.628453,800,N State St,Chicago,IL,Cook County,60610
30272,S,Chicago (Forest Pk-bound),Chicago,Chicago (Blue Line),41410,,,1,,,,,,,,"(41.896075, -87.655214)",41.895906,-87.65523,760,N Ogden Ave,Chicago,IL,Cook County,60642
30178,S,63rd (95th-bound),63rd,63rd (Red Line),40910,1,1,,,,,,,,,"(41.780536, -87.630952)",41.78045,-87.631303,,I 94,Chicago,IL,Cook County,60621
30177,N,63rd (Howard-bound),63rd,63rd (Red Line),40910,1,1,,,,,,,,,"(41.780536, -87.630952)",41.78045,-87.631303,,I 94,Chicago,IL,Cook County,60621
30223,N,Garfield (Howard-bound),Garfield,Garfield (Red Line),41170,1,1,,,,,,,,,"(41.79542, -87.631157)",41.795454,-87.631192,220,W Garfield Blvd,Chicago,IL,Cook County,60609
30190,W,Harlem (Forest Pk Branch) (Terminal arrival),Harlem,Harlem (Blue Line - Forest Park Branch),40980,,,1,,,,,,,,"(41.87349, -87.806961)",41.872944,-87.807329,7301,Harrison St,Forest Park,IL,Cook County,60130
30165,E,H.W. Library (Outer Loop),Harold Washington Library-State/Van Buren,"Harold Washington Library-State/Van Buren (Brown, Orange, Purple & Pink Lines)",40850,1,,,,1,,,,,,"(41.876862, -87.628196)",41.876925,-87.628572,26,W Van Buren St,Chicago,IL,Cook County,60604
30130,S,Western (O'Hare Branch) (Forest Pk-bound),Western,Western (Blue Line - O'Hare Branch),40670,1,,1,,,,,,,,"(41.916157, -87.687364)",41.916069,-87.687154,1875,N Western Ave,Chicago,IL,Cook County,60647
30289,N,Lake (Howard-bound),Lake,Lake (Red Line),41660,1,1,,,,,,,,,"(41.884809, -87.627813)",41.884797,-87.627452,157,N State St,Chicago,IL,Cook County,60601
30270,S,Roosevelt (95th-bound),Roosevelt,"Roosevelt (Red, Orange & Green Lines)",41400,1,1,,,,,,,,,"(41.867368, -87.627402)",41.867208,-87.627087,3,E Roosevelt Rd,Chicago,IL,Cook County,60605
30171,N,O'Hare (Terminal Arrival),O'Hare,O'Hare (Blue Line),40890,1,,1,,,,,,,,"(41.97766526, -87.90422307)",41.97807,-87.903173,825,N Patton Dr,Amf Ohare,IL,Cook County,60666
30042,E,Western (Forest Pk Branch) (O'Hare-bound),Western,Western (Blue Line - Forest Park Branch),40220,,,1,,,,,,,,"(41.875478, -87.688436)",41.875522,-87.688263,430,S Western Ave,Chicago,IL,Cook County,60612
30043,W,Western (Forest Pk Branch) (Forest Pk-bound),Western,Western (Blue Line - Forest Park Branch),40220,,,1,,,,,,,,"(41.875478, -87.688436)",41.875522,-87.688263,430,S Western Ave,Chicago,IL,Cook County,60612
30129,N,Western (O'Hare Branch) (O'Hare-bound),Western,Western (Blue Line - O'Hare Branch),40670,1,,1,,,,,,,,"(41.916157, -87.687364)",41.916069,-87.687154,1875,N Western Ave,Chicago,IL,Cook County,60647
30381,N,Cermak-McCormick Place (Harlem-bound),Cermak-McCormick Place,Cermak-McCormick Place (Green Line),41690,1,,,1,,,,,,,"(41.853115, -87.626402)",41.853067,-87.626285,12,E Cermak Rd,Chicago,IL,Cook County,60616
30382,S,Cermak-McCormick Place (63rd-bound),Cermak-McCormick Place,Cermak-McCormick Place (Green Line),41690,1,,,1,,,,,,,"(41.853115, -87.626402)",41.853067,-87.626285,12,E Cermak Rd,Chicago,IL,Cook County,60616
30386,N,Wilson (Linden-bound),Wilson,Wilson (Red & Purple Lines),40540,1,,,,,,1,,,,"(41.964273, -87.657588)",41.964395,-87.657228,4524,N Broadway St,Chicago,IL,Cook County,60640
30240,S,Addison (Forest Pk-bound),Addison,Addison (Blue Line),41240,1,,1,,,,,,,,"(41.94738, -87.71906)",41.947409,-87.719075,,I 94,Chicago,IL,Cook County,60618
30105,N,Wilson (Howard-bound),Wilson,Wilson (Red & Purple Lines),40540,1,1,,,,,,,,,"(41.964273, -87.657588)",41.964395,-87.657228,4524,N Broadway St,Chicago,IL,Cook County,60640
30384,S,Washington/Wabash (Inner Loop),Washington/Wabash,"Washington/Wabash (Brown, Green, Orange, Purple & Pink Lines)",41700,1,,,1,,,1,,1,1,"(41.88322, -87.626189)",41.883385,-87.625737,101,N Wabash Ave,Chicago,IL,Cook County,60602
30122,S,Clark/Division (95th-bound),Clark/Division,Clark/Division (Red Line),40630,1,1,,,,,,,,,"(41.90392, -87.631412)",41.903784,-87.631679,1168,N Clark St,Chicago,IL,Cook County,60610
30239,N,Addison (O'Hare-bound),Addison,Addison (Blue Line),41240,1,,1,,,,,,,,"(41.94738, -87.71906)",41.947409,-87.719075,,I 94,Chicago,IL,Cook County,60618
30106,S,Wilson (95th-bound),Wilson,Wilson (Red & Purple Lines),40540,1,1,,,,,,,,,"(41.964273, -87.657588)",41.964395,-87.657228,4524,N Broadway St,Chicago,IL,Cook County,60640
30383,N,Washington/Wabash (Outer Loop),Washington/Wabash,"Washington/Wabash (Brown, Green, Orange, Purple & Pink Lines)",41700,1,,,1,1,,,,,,"(41.88322, -87.626189)",41.883385,-87.625737,101,N Wabash Ave,Chicago,IL,Cook County,60602
30385,S,Wilson (Loop-bound),Wilson,Wilson (Red & Purple Lines),40540,1,,,,,,1,,,,"(41.964273, -87.657588)",41.964395,-87.657228,4524,N Broadway St,Chicago,IL,Cook County,60640
30033,W,Ashland (Harlem-54th/Cermak-bound),Ashland,Ashland (Green & Pink Lines),40170,1,,,1,,,,,1,,"(41.885269, -87.666969)",41.88558,-87.667231,1600,W Lake St,Chicago,IL,Cook County,60612
30032,E,Ashland (Loop-63rd-bound),Ashland,Ashland (Green & Pink Lines),40170,1,,,1,,,,,1,,"(41.885269, -87.666969)",41.88558,-87.667231,1600,W Lake St,Chicago,IL,Cook County,60612
